,Name,City,Postal Code,Latitude,Longitude,Miles to Ft Laud,Miles to Palm Beach,DB Hoovers Industry,Industry,Revenue,Employees,Ownership Type,Parent Country_Region
494,Kemet Corporation,Fort Lauderdale,33301-1872,26.1227824,-80.14312,0.04,41.34,Semiconductor and Other Electronic Component Manufacturing,InfoTech,1260554000,14850,Private,Taiwan Region
493,Ri/Bbnm Acquisition Corp.,Fort Lauderdale,33301-1875,26.1200646,-80.1441231,0.16,41.53,Investment Services,Financial,33009594,155,Private,United States
492,"Advanced Recovery Systems, LLC",Fort Lauderdale,33394-0011,26.121572,-80.139923,0.22,41.4,Outpatient Care,LifeScience,18797010,185,Private,United States
489,"Templeton International, Inc.",Fort Lauderdale,33301-1950,26.120334,-80.140142,0.24,41.48,Investment Services,Financial,449150880,5,Private,United States
490,"Templeton/Franklin Investment Services, Inc",Fort Lauderdale,33301-1950,26.120334,-80.140142,0.24,41.48,Investment Services,Financial,69529526,500,Private,United States
491,Templeton Investment Counsel LLC,Fort Lauderdale,33301-1923,26.120334,-80.140142,0.24,41.48,Investment Services,Financial,5064829.8,30,Private,United States
488,Redcap Automotive Service Valley,Fort Lauderdale,33312-1712,26.1197887,-80.147109,0.29,41.58,Computer Programming,InfoTech,9779999.7,27,Private,United States
484,Hoffman's Chocolates,Fort Lauderdale,33301-4284,26.1201192,-80.1389331,0.31,41.49,Banking,Financial,946870970,6914,Public,United States
485,"Florida Asset Resolution Group, LLC",Fort Lauderdale,33301-2477,26.1201192,-80.1389331,0.31,41.49,Investment Services,Financial,18296993,504,Private,United States
486,Harbor Beach Capital LLC,Fort Lauderdale,33301-2477,26.1201192,-80.1389331,0.31,41.49,Banking,Financial,16492392,235,Private,United States
487,Tradestation Technologies Inc,Fort Lauderdale,33324-3205,26.12196,-80.138412,0.31,41.36,Software,InfoTech,21299414,145,Private,Japan
482,Data2Intel,Fort Lauderdale,33394-3005,26.1218986,-80.1382352,0.32,41.36,Computer Programming,InfoTech,5339742.2,150,Private,United States
483,"HOME EQUITY MORTGAGE ASSOCIATES, HOME EQUIOTY MORTGAGE ASSOCIATES",Fort Lauderdale,33301-4247,26.1186942,-80.1401878,0.32,41.6,Banking,Financial,16016945,52,Private,United States
481,"U.S. Anesthesia Partners, Inc.",Fort Lauderdale,33301-4244,26.1188684,-80.1387823,0.37,41.57,Physicians and Health Practitioners,LifeScience,38258076,426,Private,United States
480,Universal Legal,Fort Lauderdale,33301-2285,26.1189305,-80.1342662,0.61,41.53,Business Support Services,InfoTech,7002120,45,Private,United States
479,Synergylabs LLC,Fort Lauderdale,33316-1159,26.1116343,-80.1393219,0.78,42.07,Pharmaceutical Manufacturing,LifeScience,6000000,45,Private,United States
478,"Scribeamerica, LLC",Fort Lauderdale,33301-2367,26.1188486,-80.131082,0.8,41.52,Ambulatory Services,LifeScience,77500000,5000,Private,United States
477,Veritas Farms,Fort Lauderdale,33301-2147,26.1224426,-80.127876,0.96,41.25,Pharmaceutical Manufacturing,LifeScience,7291907.8,10,Public,United States
476,Life Wear Technologies,Pompano Beach,33069-3523,26.1152185,-80.1617189,1.24,42.03,Pharmaceutical Manufacturing,LifeScience,8169017.8,30,Private,United States
475,Broward Health Medical Center,Fort Lauderdale,33316-2589,26.1018675,-80.1405904,1.42,42.75,Hospitals,LifeScience,455744930,86,Private,United States
474,Furtenburg Inc,Boca Raton,33432-2803,26.1401353,-80.1195024,1.93,39.98,Banking,Financial,82945763,234,Private,United States
473,"Signet Diagnostics Imaging Services Group, LLC",Boca Raton,33432-1954,26.147041,-80.12024,2.23,39.51,Physicians and Health Practitioners,LifeScience,7551304.8,400,Private,United States
472,PCLS,Fort Lauderdale,33315-2232,26.0910508,-80.1654596,2.56,43.71,Diagnostic Laboratories,LifeScience,7051343,27,Private,United States
471,Gaddis Capital Corporation,Fort Lauderdale,33311-1757,26.1668489,-80.1482226,3.09,38.37,Banking,Financial,33850872,30,Private,United States
470,"L7 Solutions, LSeven Networks",Fort Lauderdale,33312-4826,26.0844444,-80.1781692,3.39,44.29,Computer System Design Services,InfoTech,6551036.8,34,Private,United States
469,The Chrysalis Center Inc,Fort Lauderdale,33312-1018,26.1206333,-80.1997981,3.5,42.1,Physicians and Health Practitioners,LifeScience,9397227.3,99,Private,United States
468,Palms Wellington Surgical Center,Royal Palm Beach,33411-3514,26.677546,-80.199214,38.54,9.38,Hospitals,LifeScience,5099571.2,30,Private,United States
467,"Marlo Electronics, Inc.",Boca Raton,33431-5412,26.175859,-80.138939,3.71,37.67,Semiconductor and Other Electronic Component Manufacturing,InfoTech,8039483.1,71,Private,United States
466,"Tropical Assemblies, Inc.",Fort Lauderdale,33334-2202,26.177657,-80.140445,3.83,37.56,Semiconductor and Other Electronic Component Manufacturing,InfoTech,14936765,55,Private,United States
464,Plantation General Hospital,Plantation,33317-2882,26.1264969,-80.2053767,3.86,41.78,Hospitals,LifeScience,376528690,600,Partnership,United States
465,"Q Straint USA, Valeda Company",Oakland Park,33334-4671,26.1770022,-80.1310064,3.86,37.53,Medical Equipment and Supplies,LifeScience,12363347,70,Private,United States
463,Palladium Technologies Inc.,Fort Lauderdale,33312-6827,26.0738738,-80.1808369,4.08,45.04,Computer Programming,InfoTech,6591341,28,Private,United States
462,American National Bank,Fort Lauderdale,33308-5214,26.1811688,-80.1200457,4.32,37.16,Banking,Financial,13938000,27,Private,United States
461,"Circuitronix, LLC",Fort Lauderdale,33312-6802,26.0701576,-80.184919,4.43,45.34,Semiconductor and Other Electronic Component Manufacturing,InfoTech,89060600,400,Private,United States
458,"Lumbermen's Credit Association of Ocala, Inc.",Oakland Park,33334-5657,26.1839197,-80.1218561,4.46,36.98,Business Support Services,InfoTech,6690549.9,100,Private,United States
459,"Be Powerful, LLC",Fort Lauderdale,33312-6802,26.07018,-80.1857999,4.46,45.35,Health and Personal Care Wholesale,LifeScience,15810721,100,Private,United States
460,"Bpi Sports, LLC",Fort Lauderdale,33312-6802,26.07018,-80.1857999,4.46,45.35,Health and Personal Care Wholesale,LifeScience,41818764,65,Private,United States
457,Nearpod Inc.,Dania Beach,33004-2200,26.0594381,-80.1615227,4.49,45.84,Computer Programming,InfoTech,41296673,200,Partnership,United States
456,"Unit Dose Services, LLC",Dania Beach,33004-2363,26.057898,-80.156807,4.53,45.9,Health and Personal Care Wholesale,LifeScience,10136692,30,Private,United States
455,"BROWARD HEALTH MEDICAL CENTER, BROWARD HEALTH NORTH",Fort Lauderdale,33309-3092,26.185175,-80.16652,4.58,37.31,Hospitals,LifeScience,1035556000,400,Nonprofit,United States
452,Holy Cross Medical Group (HCH),Fort Lauderdale,33308-4668,26.1866679,-80.1196531,4.69,36.78,Hospitals,LifeScience,470372990,2085,Nonprofit,United States
453,Amisub,Fort Lauderdale,33308-4603,26.1866679,-80.1196531,4.69,36.78,Hospitals,LifeScience,11006292,989,Private,United States
454,"Cardiology Associates of Fort Lauderdale, P.A. (inc)",Fort Lauderdale,33308-4603,26.1866679,-80.1196531,4.69,36.78,Hospitals,LifeScience,8699999.8,50,Private,United States
451,Atlas Marine Systems Inc,Fort Lauderdale,33309-7140,26.1890595,-80.1672738,4.85,37.06,Semiconductor and Other Electronic Component Manufacturing,InfoTech,6664828.8,75,Private,United States
448,The Experts Inc,Fort Lauderdale,33308-4051,26.1889189,-80.1145488,4.94,36.59,Computer Programming,InfoTech,34529282,400,Private,United States
449,Inmed Diagnostic Services of Florida LLC,Fort Lauderdale,33308-4054,26.1889189,-80.1145488,4.94,36.59,Ambulatory Services,LifeScience,8154339.8,95,Private,United States
450,"Omnicomm Systems, Inc.",Fort Lauderdale,33309-3047,26.1887569,-80.1725973,4.94,37.14,Computer Programming,InfoTech,27104481,50,Private,United States
447,"ACR Electronics, Inc.",Fort Lauderdale,33312-6645,26.0510798,-80.168935,5.17,46.48,Communications Equipment Manufacturing,InfoTech,63705463,200,Private,Netherlands
446,BCC Financial Management Services,Fort Lauderdale,33309-3400,26.1849703,-80.1899911,5.21,37.63,Physicians and Health Practitioners,LifeScience,7002031.8,75,Private,United States
445,"Affinity Internet, Inc.",Fort Lauderdale,33309-3459,26.1849712,-80.1908194,5.24,37.64,Data Processing,InfoTech,12789279,25,Private,United States
444,Ipvision,Fort Lauderdale,33309-2359,26.1980445,-80.1505966,5.25,36.26,Computer System Design Services,InfoTech,10000000,4,Private,United States
443,"Fort Lauderdale Hospital, Inc.",Oakland Park,33334-4135,26.197862,-80.133289,5.26,36.12,Hospitals,LifeScience,21516247,130,Private,United States
442,Miracle Products Co,Fort Lauderdale,33317-6026,26.0979404,-80.2238313,5.27,43.97,Health and Personal Care Wholesale,LifeScience,12490247,60,Private,United States
441,Anacom Electronica,Dania,33004-3567,26.0465172,-80.1533467,5.28,46.65,Software,InfoTech,5000000,55,Private,United States
440,"Strictly Tech, Strictly Technology",Fort Lauderdale,33309-2736,26.1939533,-80.1736947,5.3,36.81,Computer Programming,InfoTech,30000000,25,Private,United States
439,"Natbank, National Association",Hollywood,33020-7119,26.0468021,-80.1590881,5.31,46.68,Banking,Financial,8156999.6,35,Private,United States
437,Florida Institute of Health,Lauderdale Lakes,33313-7260,26.1630883,-80.216707,5.35,39.49,Diagnostic Laboratories,LifeScience,8265272.1,292,Partnership,United States
438,Gamingmodz Inc,Fort Lauderdale,33312-6626,26.0487501,-80.1702866,5.35,46.65,Computer System Design Services,InfoTech,10000000,45,Private,United States
436,Brightstar Credit Union,Sunrise,33313-6341,26.1364534,-80.2287766,5.39,41.47,Banking,Financial,21561281,40,Nonprofit,United States
434,Netsurion LLC,Fort Lauderdale,33309-2181,26.2003651,-80.1500978,5.41,36.1,Computer System Design Services,InfoTech,13847609,35,Private,United States
435,Color Reflections,Hollywood,33020-1032,26.0474119,-80.1687606,5.41,46.73,Business Support Services,InfoTech,5849719,10,Private,United States
433,Eci Telecom Inc.,Fort Lauderdale,33309-6362,26.1886,-80.189896,5.42,37.38,Communications Equipment Manufacturing,InfoTech,10535657,45,Private,Israel
432,"Guardia, LLC",Fort Lauderdale,33309-2367,26.2012318,-80.1480918,5.46,36.02,Software,InfoTech,5083850.9,53,Private,United States
431,Pediatrics Associates,Lauderdale Lakes,33319-5867,26.1819656,-80.2015572,5.48,38,Physicians and Health Practitioners,LifeScience,55077553,75,Private,United States
429,"Signature Commercial Solutions, Sigservco",Fort Lauderdale,33309-2175,26.2025213,-80.1495745,5.56,35.95,Computer System Design Services,InfoTech,314099240,100,Private,United States
430,"Signature Consultants, Hunter Hollis",Fort Lauderdale,33309-2175,26.2025213,-80.1495745,5.56,35.95,Computer System Design Services,InfoTech,35559086,100,Private,United States
428,"Henderson Behavioral Health, Inc.",Lauderdale Lakes,33319-5839,26.1826,-80.202865,5.57,37.97,Outpatient Care,LifeScience,37612694,50,Nonprofit,United States
427,OZ,Fort Lauderdale,33309-6157,26.2026719,-80.1511008,5.58,35.95,Computer System Design Services,InfoTech,9000000,50,Private,United States
426,"Anesco North Broward, LLC",Fort Lauderdale,33309-3392,26.1876034,-80.1970959,5.61,37.55,Physicians and Health Practitioners,LifeScience,15598116,90,Private,United States
425,Catholic Health Services Inc,Lauderdale Lakes,33319-5860,26.1835537,-80.2030015,5.62,37.91,Physicians and Health Practitioners,LifeScience,11908478,65,Private,United States
424,Citrix,Fort Lauderdale,33309-2040,26.2039173,-80.1539354,5.68,35.9,Software,InfoTech,3010564000,600,Public,United States
422,Bank Atlantic,Fort Lauderdale,33309-1823,26.2018167,-80.1698942,5.74,36.23,Banking,Financial,52238998,200,Private,United States
423,Liberty Power Holdings LLC,Fort Lauderdale,33309-1823,26.2018167,-80.1698942,5.74,36.23,Electricity Generation and Distribution,Clean Tech,22539703,65,Private,United States
419,Wcs Lending LLC,Hollywood,33020-1003,26.0413238,-80.1652726,5.76,47.11,Mortgage and Credit,Financial,22062662,45,Private,United States
420,Andrx Corporation,Davie,33314-3902,26.0673484,-80.2131338,5.76,45.88,Pharmaceutical Manufacturing,LifeScience,229016310,230,Private,Ireland
421,OrbusNeich,Fort Lauderdale,33309-6315,26.1907852,-80.1961608,5.76,37.33,Medical Equipment and Supplies,LifeScience,5709657.2,30,Private,Hong Kong SAR
417,IRL,Fort Lauderdale,33309-6313,26.1927819,-80.1932136,5.77,37.15,Diagnostic Laboratories,LifeScience,41385563,250,Private,United States
418,Stryker Mako,Fort Lauderdale,33317-7424,26.0893401,-80.228733,5.77,44.62,Medical Equipment and Supplies,LifeScience,124619920,315,Private,United States
415,"Latin 3, Inc.",Fort Lauderdale,33309-9105,26.2059101,-80.1459971,5.78,35.68,Data Processing,InfoTech,8216441.2,150,Private,United States
416,f/k/a: Bitdefender,Fort Lauderdale,33309-6124,26.2055992,-80.1513266,5.78,35.76,Computer Programming,InfoTech,21094873,115,Private,Netherlands
414,"Natura-Vigor, Sun Naturals",Davie,33317-7403,26.0909482,-80.2301469,5.81,44.53,Pharmaceutical Manufacturing,LifeScience,109052410,350,Private,United States
413,Sportsline.com,Fort Lauderdale,33309-1825,26.2016771,-80.1745156,5.82,36.29,Data Processing,InfoTech,17612877,188,Private,United States
410,Pinnacle Hospitality Systems,Fort Lauderdale,33309-1865,26.203396,-80.1691694,5.83,36.11,Computer System Design Services,InfoTech,25399441,37,Private,United States
411,Delphi Behavioral Health Group LLC,Fort Lauderdale,33309-1894,26.2035725,-80.1681938,5.83,36.09,Outpatient Care,LifeScience,60000000,450,Private,United States
412,DataCore,Fort Lauderdale,33309-1864,26.2035725,-80.1681938,5.83,36.09,Magnetic and Optical Media Manufacturing,InfoTech,33539715,65,Private,United States
409,"Credito Real USA Finance, LLC",Fort Lauderdale,33309-1931,26.204918,-80.1631796,5.84,35.94,Banking,Financial,19057573,50,Private,Mexico
407,Hte-Ucs Inc,Fort Lauderdale,33309-1835,26.2037237,-80.1690658,5.85,36.09,Computer Programming,InfoTech,8788021.1,65,Private,United States
408,"Engagepoint, Inc.",Fort Lauderdale,33309-2189,26.2069087,-80.1438454,5.85,35.59,Computer Programming,InfoTech,5288620,25,Private,United States
406,Skillstorm Commercial Services LLC,Fort Lauderdale,33309-6112,26.2068471,-80.1501082,5.86,35.66,Computer System Design Services,InfoTech,18127834,430,Private,United States
405,Allied Telecommunications Ltd,Fort Lauderdale,33313-4507,26.1437512,-80.2356384,5.91,41.09,Communications Equipment Manufacturing,InfoTech,15000000,25,Private,United States
404,Mass Mutual,Fort Lauderdale,33334-3638,26.207721,-80.1375374,5.92,35.48,Investment Services,Financial,9117369.7,60,Private,United States
403,Hope Destination Inc,Fort Lauderdale,33309-6112,26.208064,-80.1498234,5.94,35.57,Hospitals,LifeScience,17223837,100,Private,United States
402,Fleabusters,Fort Lauderdale,33309-2051,26.2077014,-80.1571623,5.97,35.68,Pharmaceutical Manufacturing,LifeScience,21328072,200,Private,United States
401,"Clinical Diagnostic Solutions, Inc.",Plantation,33313-4544,26.1477534,-80.2357038,5.99,40.83,Pharmaceutical Manufacturing,LifeScience,8217604.6,38,Private,Sweden
397,"American Document Management Group, Inc.",Fort Lauderdale,33309-1735,26.2004061,-80.1856121,6,36.53,Data Processing,InfoTech,10865553,14,Private,United States
398,"Radgov, Inc.",Fort Lauderdale,33309-2180,26.2090213,-80.1405032,6,35.42,Computer Programming,InfoTech,6529245.9,40,Private,United States
399,BioTrackTHC,Fort Lauderdale,33309-2142,26.2090213,-80.1405032,6,35.42,Software,InfoTech,5019013.9,62,Private,United States
400,"Equity Auto Finance, Inc.",Fort Lauderdale,33309-1742,26.2018994,-80.1817524,6,36.37,Banking,Financial,5203938,25,Private,United States
395,Safco,Fort Lauderdale,33309-2199,26.2093973,-80.141946,6.02,35.4,Banking,Financial,26510324,80,Private,United States
396,"Engagepoint, Inc.",Fort Lauderdale,33309-2203,26.2093973,-80.141946,6.02,35.4,Computer Programming,InfoTech,5088564.9,26,Private,United States
394,Evoltec,Fort Lauderdale,33309-1911,26.2081104,-80.1617844,6.04,35.7,Computer System Design Services,InfoTech,8669074.1,45,Private,United States
393,"Giacare, Inc.",Fort Lauderdale,33308-1915,26.204999,-80.1089832,6.1,35.45,Computer System Design Services,InfoTech,5137939,45,Private,United States
392,Hygea Holdings Corp,Plantation,33317-2200,26.1251088,-80.2423473,6.15,42.45,Ambulatory Services,LifeScience,44760880,40,Private,United States
391,First Transcontinental Financial Group Corporation,Fort Lauderdale,33308-1916,26.2055569,-80.1076306,6.17,35.4,Banking,Financial,9547787.7,132,Private,United States
390,Ritter's Printing,Fort Lauderdale,33309-1001,26.2096064,-80.1674508,6.22,35.67,Business Support Services,InfoTech,5147218.2,25,Private,United States
389,"Profab Electronics, Inc.",Pompano Beach,33069-4803,26.2114001,-80.1604762,6.25,35.46,Semiconductor and Other Electronic Component Manufacturing,InfoTech,12847165,42,Private,United States
386,Intermedix Corporation,Fort Lauderdale,33308-1424,26.2078173,-80.1084844,6.3,35.25,Software,InfoTech,328665830,70,Private,United States
387,Fame,Fort Lauderdale,33308-1416,26.2078173,-80.1084844,6.3,35.25,Computer Programming,InfoTech,13459014,150,Private,United States
388,"Centralreach, LLC",Fort Lauderdale,33308-1416,26.2078173,-80.1084844,6.3,35.25,Computer Programming,InfoTech,12991226,100,Private,United States
385,HM Compounding,Pompano Beach,33069-4807,26.2104757,-80.1700222,6.32,35.64,Health and Personal Care Wholesale,LifeScience,10935000,30,Private,United States
384,IMI,Pompano Beach,33069-4326,26.213528,-80.1635285,6.43,35.36,Medical Equipment and Supplies,LifeScience,7825543.9,30,Private,United States
383,Children's Medical Center PA,Hollywood,33021-3422,26.0331854,-80.1916303,6.85,47.93,Physicians and Health Practitioners,LifeScience,10381054,100,Private,United States
382,"Magic Leap, Inc.",Plantation,33313-4497,26.1455067,-80.2532602,7.01,41.29,Computer Programming,InfoTech,179053850,1299,Private,United States
381,"Chetu, Inc.",Plantation,33322-4728,26.141836,-80.255432,7.08,41.57,Computer System Design Services,InfoTech,142399990,34,Private,United States
379,"Columbia HCA, Westside Regional Medical Center",Fort Lauderdale,33324-2701,26.123543,-80.259512,7.21,42.86,Hospitals,LifeScience,218679410,900,Private,United States
380,"Outpatient Surgical Services, Ltd.",Fort Lauderdale,33324-1811,26.1256045,-80.2594002,7.21,42.72,Physicians and Health Practitioners,LifeScience,13549224,102,Partnership,United States
377,"Djsp Enterprises, Inc.",Plantation,33324-3920,26.1096669,-80.2588776,7.22,43.76,Banking,Financial,69076729,3,Public,United States
378,"Orthopedic Center of South Florida, P.A.",Fort Lauderdale,33324-3179,26.112798,-80.259226,7.22,43.56,Physicians and Health Practitioners,LifeScience,18000000,63,Private,United States
376,"Fort Lauderdale Eye Institute, Inc",Plantation,33324-3118,26.1100061,-80.2598357,7.28,43.76,Physicians and Health Practitioners,LifeScience,7154985,70,Private,United States
372,"Betancourt, Oscar Md, Children's Medical Association",Plantation,33324-2700,26.1190263,-80.2614472,7.33,43.19,Physicians and Health Practitioners,LifeScience,8100809.1,50,Private,United States
373,"Protective Group, a Point Blank, The, PPI International",Pompano Beach,33069-3116,26.2282418,-80.1490512,7.33,34.19,Medical Equipment and Supplies,LifeScience,197230000,824,Private,United States
374,Dhb Armor Group Inc.,Pompano Beach,33069-3116,26.2282418,-80.1490512,7.33,34.19,Medical Equipment and Supplies,LifeScience,29204643,2,Private,United States
375,"Protective Products Enterprises, Inc.",Pompano Beach,33069-3116,26.2282418,-80.1490512,7.33,34.19,Medical Equipment and Supplies,LifeScience,11675556,98,Partnership,United States
371,"Hygea Health Holdings, Inc.",Plantation,33324-2695,26.1184942,-80.2623618,7.39,43.24,Ambulatory Services,LifeScience,43277855,30,Private,United States
370,Orthopedic Associates USA P.A.,Plantation,33324-1849,26.1243551,-80.262536,7.4,42.86,Physicians and Health Practitioners,LifeScience,5764595,31,Private,United States
369,Net Insight,Plantation,33324-4463,26.1060056,-80.2614908,7.42,44.05,Computer System Design Services,InfoTech,11320759,60,Private,Sweden
367,"Memorial Healthcare System, Memorial Regional Hospital",Hollywood,33021-5421,26.0195318,-80.179802,7.46,48.74,Hospitals,LifeScience,2159666000,100,Nonprofit,United States
368,Memorial Regional Hospital,Hollywood,33021-5421,26.0195318,-80.179802,7.46,48.74,Hospitals,LifeScience,73930878,600,Nonprofit,United States
366,"Dermatology Consultants of South Florida, P.A.",Coral Springs,33065-5055,26.1624677,-80.2565692,7.55,40.24,Physicians and Health Practitioners,LifeScience,14672939,10,Private,United States
365,Pharcomed Corp.,Plantation,33322-4007,26.1484454,-80.2645576,7.73,41.31,Health and Personal Care Wholesale,LifeScience,9566395.8,100,Private,United States
363,Protek Solutions Inc,Pompano Beach,33062-4304,26.2330635,-80.1032245,8.05,33.48,Computer System Design Services,InfoTech,6286794.2,101,Private,United States
364,Softvelocity Inc,Pompano Beach,33062-5244,26.2321879,-80.1003687,8.05,33.53,Software,InfoTech,7199999.8,76,Private,United States
360,"Eye Surgery Associates, LLC",Hollywood,33021-8353,26.0088188,-80.177175,8.12,49.44,Physicians and Health Practitioners,LifeScience,6649808.9,40,Private,United States
361,Abbott Informatics,Hollywood,33021-6751,26.0105815,-80.1835833,8.12,49.38,Computer System Design Services,InfoTech,53629559,423,Private,United States
362,"Healthcare Financial Systems, Inc",Hollywood,33021-6794,26.0105815,-80.1835833,8.12,49.38,Investment Services,Financial,9382452,100,Private,United States
359,South Broward Artificial Kidney Center Inc,Hollywood,33021-6609,26.0108232,-80.1877913,8.19,49.41,Outpatient Care,LifeScience,8348100.7,35,Private,United States
358,"Hollywood Dermatology and Cosmetic Surgery Specialists, Pllc",Hollywood,33021-6745,26.00912,-80.1829294,8.2,49.48,Physicians and Health Practitioners,LifeScience,7659176.8,50,Private,United States
357,Transcapital Bank,Sunrise,33351-7229,26.1676076,-80.2688048,8.39,40.15,Banking,Financial,9218999.9,4,Private,United States
356,Whoa.com,Hollywood,33024-2776,26.0318855,-80.2360523,8.5,48.58,Computer System Design Services,InfoTech,16278742,15,Private,United States
355,"Elegant Beauty Supplies 15, Inc",Hollywood,33020-5631,26.0006383,-80.1671474,8.54,49.91,Health and Personal Care Wholesale,LifeScience,9163031.6,35,Private,United States
354,Holistix Treatment Centers,Margate,33063-5128,26.2357726,-80.2085363,8.82,34.52,Outpatient Care,LifeScience,12000000,50,Private,United States
353,"Bankers Healthcare Group, LLC",Davie,33324-4202,26.1060812,-80.2852736,8.88,44.5,Banking,Financial,140658950,127,Private,United States
351,"Electriduct, Inc.",Pompano Beach,33069-1634,26.2513347,-80.1468691,8.92,32.6,Semiconductor and Other Electronic Component Manufacturing,InfoTech,6274815.1,30,Private,United States
352,Network Managers Inc,Hallandale Beach,33009-2017,25.995533,-80.1700192,8.92,50.28,Computer System Design Services,InfoTech,10117000,25,Private,United States
350,Memorial Healthcare System,Pembroke Pines,33024-2536,26.0296956,-80.2455491,9.01,48.87,Hospitals,LifeScience,16604435,75,Private,United States
349,University Hospital and Medical Center,Fort Lauderdale,33321-2996,26.21217,-80.254256,9.27,36.94,Hospitals,LifeScience,105922420,1100,Partnership,United States
348,University Pavilion Hospital,Fort Lauderdale,33321-2901,26.2141989,-80.2526838,9.29,36.78,Hospitals,LifeScience,6858544.8,100,Private,United States
347,"Ccrt Facilities, Family Therapy Institute Of South Florida",Sunrise,33351-6925,26.1701718,-80.2839173,9.33,40.3,Outpatient Care,LifeScience,10613654,30,Private,United States
346,"Desjardins Bank, National Association",Hallandale Beach,33009-4429,25.98622,-80.1381044,9.41,50.68,Banking,Financial,11840000,25,Private,Canada
345,SIA Interactive,Hallandale Beach,33009-3905,25.986292,-80.16355,9.49,50.86,Computer Programming,InfoTech,25000000,610,Private,United States
344,Accesso Partners LLC,Hallandale Beach,33009-4373,25.9846227,-80.1428147,9.52,50.82,Investment Services,Financial,8207494.7,30,Private,United States
343,"Alegro Industries, Inc.",Tamarac,33321-2124,26.2205473,-80.2521265,9.57,36.35,Semiconductor and Other Electronic Component Manufacturing,InfoTech,12000000,57,Private,United States
342,Urban Radio Broadcasting LLC,Hallandale,33009-5434,25.9838281,-80.1485715,9.58,50.91,Broadcasting and Media,InfoTech,14759227,2,Private,United States
341,HealthSouth Sunrise Rehabilitation Hospital,Sunrise,33351-5813,26.1782351,-80.2849187,9.6,39.8,Hospitals,LifeScience,48184517,390,Private,United States
340,We Florida Financial,Margate,33063-5710,26.252359,-80.2007305,9.67,33.28,Banking,Financial,19419708,10,Nonprofit,United States
339,"Sunbelt Credit Solutions, LLC",Margate,33063-7764,26.2547137,-80.1940448,9.68,33.01,Banking,Financial,8100000.4,41,Private,United States
338,"General Data Kommunic & Netwkng, General Data Communication & Networking",Hollywood,33024-8011,26.0440759,-80.2754446,9.82,48.4,Computer System Design Services,InfoTech,17000000,401,Private,United States
337,"Patient Care America, DCRX Infusion",Pompano Beach,33064-2264,26.2666065,-80.1453338,9.98,31.54,Pharmaceutical Manufacturing,LifeScience,15300000,30,Private,United States
336,"Embassy Loans, Inc.",Hollywood,33024-8067,26.0440373,-80.2798243,10.05,48.48,Banking,Financial,6643248.1,33,Private,United States
335,Midflorida Cardiology Specialists,Sunrise,33351-7904,26.1840716,-80.2901434,10.06,39.54,Physicians and Health Practitioners,LifeScience,7037239.1,68,Private,United States
334,"Milestone Utility Services, Inc.",Plantation,33325-2416,26.123466,-80.306659,10.14,43.82,Computer System Design Services,InfoTech,8500000,2,Private,United States
333,"Innovative Manufacturing & Distribution Services, Inc",Pompano Beach,33069-1098,26.269351,-80.1544539,10.19,31.46,Health and Personal Care Wholesale,LifeScience,8605743.4,3,Private,United States
332,"Concurrent Real-Time, Inc.",Pompano Beach,33064-2046,26.2707128,-80.1345715,10.27,31.15,Computer Programming,InfoTech,17575624,60,Private,United States
331,"Unipower, LLC",Coral Springs,33071-7321,26.2338977,-80.2550012,10.37,35.55,Semiconductor and Other Electronic Component Manufacturing,InfoTech,31578487,55,Private,United States
330,Ivf Florida Reproductive Associates,Margate,33063-5757,26.2639235,-80.2004955,10.41,32.51,Physicians and Health Practitioners,LifeScience,5866249.1,32,Private,United States
329,"Ksm Electronics, Inc.",Tamarac,33321-6409,26.1967428,-80.289708,10.44,38.72,Semiconductor and Other Electronic Component Manufacturing,InfoTech,47517780,80,Private,United States
328,"Unipharma, LLC",Tamarac,33321-6404,26.203587,-80.288807,10.63,38.26,Pharmaceutical Manufacturing,LifeScience,48634598,126,Private,United States
327,Rand Eye Institute,Pompano Beach,33064-3542,26.2755782,-80.1237101,10.67,30.71,Physicians and Health Practitioners,LifeScience,20299191,115,Private,United States
326,"HOLLYWOOD HILLS NURSING HOME, HOLLYWOOD PAVILLION",Lighthouse Point,33064-8180,26.2713109,-80.0897648,10.82,30.78,Hospitals,LifeScience,15540447,200,Private,United States
325,Mission Critical Systems Inc.,Pompano Beach,33064-6278,26.2756459,-80.1045126,10.87,30.56,Computer System Design Services,InfoTech,32000000,28,Private,United States
324,"Ambulatory Services Center, Amsurg",Coral Springs,33071-6053,26.2521287,-80.2524314,11.24,34.31,Physicians and Health Practitioners,LifeScience,5455176.8,50,Private,United States
321,"E-Builder, Inc.",Sunrise,33323-2946,26.1437079,-80.3243571,11.33,42.93,Computer Programming,InfoTech,28052765,180,Private,United States
322,"Rina Usa, Inc.",Sunrise,33323-2949,26.1437079,-80.3243571,11.33,42.93,Data Processing,InfoTech,5021536.8,15,Private,Italy
323,Processmap Corporation,Sunrise,33323-2948,26.1437079,-80.3243571,11.33,42.93,Computer Programming,InfoTech,12684944,10,Private,United States
320,"North Shore Holdings Lighthouse Point, Inc.",Lighthouse Point,33064-8028,26.2820604,-80.0890884,11.55,30.04,Medical Equipment and Supplies,LifeScience,8169017.8,30,Private,United States
319,Ppi International Corp.,Sunrise,33323-2802,26.1437716,-80.3301363,11.69,43.07,Medical Equipment and Supplies,LifeScience,39000000,95,Private,United States
317,"Assurance Financial Partners, LLC",Sunrise,33323-2861,26.1402597,-80.3310348,11.71,43.31,Investment Services,Financial,117000000,131,Private,United States
318,"Synergistix, Inc.",Sunrise,33325-6257,26.1271927,-80.3319102,11.71,44.17,Computer System Design Services,InfoTech,12937069,65,Private,United States
316,Broadspire,Fort Lauderdale,33323-2800,26.1386777,-80.3313442,11.72,43.42,Ambulatory Services,LifeScience,63813957,1300,Private,United States
312,Sheridan Children's Healthcare,Sunrise,33323-2864,26.1430151,-80.3316047,11.77,43.15,Physicians and Health Practitioners,LifeScience,203412860,600,Private,United States
313,"Sheridan Emergency Physician Services, Inc.",Sunrise,33323-2896,26.1430151,-80.3316047,11.77,43.15,Physicians and Health Practitioners,LifeScience,16847685,554,Private,United States
314,"Sheridan Anesthesia Services of Georgia, P.C.",Sunrise,33323-2853,26.1430151,-80.3316047,11.77,43.15,Physicians and Health Practitioners,LifeScience,10257460,120,Private,United States
315,"Sheridan Children's Hospital Services, Inc",Fort Lauderdale,33323-2896,26.1430151,-80.3316047,11.77,43.15,Physicians and Health Practitioners,LifeScience,5549568.2,118,Private,United States
311,Hygenic Cosmetics,Pompano Beach,33064-8607,26.2933514,-80.1424222,11.82,29.69,Health and Personal Care Wholesale,LifeScience,6422062.9,30,Private,United States
310,Sanctuary Medical Center,Boca Raton,33431-5145,26.2900863,-80.0948924,11.98,29.51,Physicians and Health Practitioners,LifeScience,5151316.2,60,Private,United States
309,Mdr LLC,Sunrise,33325-6209,26.1260896,-80.3368899,12.01,44.36,Pharmaceutical Manufacturing,LifeScience,21278618,150,Partnership,United States
306,"Nutranext, LLC",Sunrise,33323-2813,26.135824,-80.336609,12.03,43.73,Health and Personal Care Wholesale,LifeScience,608176640,510,Private,United States
307,Rainbow Light,Sunrise,33323-2813,26.135824,-80.336609,12.03,43.73,Pharmaceutical Manufacturing,LifeScience,5844865.8,5,Private,United States
308,Natural Vitality,Sunrise,33323-2813,26.135824,-80.336609,12.03,43.73,Health and Personal Care Wholesale,LifeScience,11367411,50,Private,United States
305,Chase,Sunrise,33325-6267,26.1319176,-80.3372328,12.05,44,Banking,Financial,6035559.2,78,Private,United States
304,Studio Make-Up Corporation,Deerfield Beach,33442-7709,26.2975624,-80.12672,12.16,29.24,Health and Personal Care Wholesale,LifeScience,34489277,100,Private,United States
303,CBMA,Deerfield Beach,33442-7709,26.2978006,-80.1255422,12.18,29.21,Computer System Design Services,InfoTech,58001820,40,Private,United States
300,Business Financial Services,Coral Springs,33065-4149,26.2719844,-80.2496001,12.27,32.97,Banking,Financial,17778391,237,Private,United States
301,BFS Capital,Coral Springs,33065-4149,26.2719844,-80.2496001,12.27,32.97,Banking,Financial,13097870,70,Private,United States
302,Data Meaning Services Group Inc,Coral Springs,33065-4149,26.2719844,-80.2496001,12.27,32.97,Computer Programming,InfoTech,5349885.9,35,Private,United States
299,Arf Financial LLC,Sunrise,33323-2899,26.1351864,-80.340978,12.3,43.88,Banking,Financial,11970501,50,Private,United States
298,Terumo Aortic,Sunrise,33325-6220,26.13048,-80.341757,12.33,44.2,Medical Equipment and Supplies,LifeScience,16539316,64,Private,Spain
290,"Mednax, Inc.",Sunrise,33323-2843,26.1338501,-80.342138,12.36,44,Physicians and Health Practitioners,LifeScience,3513542000,16085,Public,United States
291,"Pediatrix Medical Group, Inc.",Sunrise,33323-2843,26.1338501,-80.342138,12.36,44,Physicians and Health Practitioners,LifeScience,92229744,105,Private,United States
292,Mosaic Ansthsia & Prioprtve Srvcs,Sunrise,33323-2843,26.1338501,-80.342138,12.36,44,Physicians and Health Practitioners,LifeScience,45965275,34,Private,United States
293,"Pediatrix Medical Group of Arkansas, P.A.",Fort Lauderdale,33323-2843,26.1338501,-80.342138,12.36,44,Physicians and Health Practitioners,LifeScience,9195343,116,Private,United States
294,"Obstetrix Medical Group, Inc.",Fort Lauderdale,33323-2843,26.1338501,-80.342138,12.36,44,Physicians and Health Practitioners,LifeScience,11783516,2,Private,United States
295,"American Anesthesiology Associates of Florida, Inc.",Sunrise,33323-2843,26.1338501,-80.342138,12.36,44,Physicians and Health Practitioners,LifeScience,6174376,79,Private,United States
296,"Mednax Services, Inc.",Fort Lauderdale,33323-2843,26.1338501,-80.342138,12.36,44,Physicians and Health Practitioners,LifeScience,7868152.1,37,Private,United States
297,Hose Mccann Communications,Deerfield Beach,33442-7738,26.3004479,-80.1261965,12.36,29.03,Communications Equipment Manufacturing,InfoTech,6323319,40,Private,United States
289,"Hamilton Group Funding, Inc.",Sunrise,33323-2832,26.1414796,-80.3421549,12.41,43.51,Banking,Financial,55441162,340,Private,United States
288,Med-Care Medical Inc.,Deerfield Beach,33442-8119,26.3033976,-80.1518466,12.53,29.12,Health and Personal Care Wholesale,LifeScience,10000000,103,Private,United States
287,"South Florida Dentistry For Children & Orthodontics, PA",Coral Springs,33065-3913,26.2690246,-80.2621223,12.54,33.45,Dentists,LifeScience,5509353.2,60,Private,United States
286,Alcat Worldwide,Deerfield Beach,33442-2985,26.3055019,-80.1266686,12.71,28.69,Diagnostic Laboratories,LifeScience,11399786,80,Private,United States
285,"Renal Carepartners At Memorial West, LLC",Hollywood,33028-1007,26.0118983,-80.3096105,12.84,51.16,Outpatient Care,LifeScience,5852393.2,25,Private,United States
284,Memorial Same Day Surgery Center East,Pembroke Pines,33028-1016,26.0113218,-80.3112566,12.94,51.22,Physicians and Health Practitioners,LifeScience,10203447,80,Partnership,United States
283,Easyworkforce Software Inc.,Miramar,33025-3944,25.9799562,-80.2795022,12.97,52.73,Computer Programming,InfoTech,5674497.1,48,Private,United States
282,Kaba Workforce Solutions,Miramar,33025-3927,25.9813135,-80.2816637,12.99,52.68,Computer Programming,InfoTech,9377120,66,Private,Switzerland
281,"Medical Acquisition Group, LLC",Coral Springs,33071-5416,26.2513377,-80.2962167,13.02,35.42,Investment Services,Financial,10000000,30,Private,United States
280,Tropical Financial Credit Union,Miramar,33025-6548,25.9810483,-80.2855014,13.16,52.76,Banking,Financial,26239475,120,Private,United States
279,Aveva,Miramar,33025-3907,25.9785393,-80.2827417,13.18,52.88,Pharmaceutical Manufacturing,LifeScience,81165901,80,Private,Canada
278,East Florida Supply Chain Service Center,Miramar,33025-3210,25.9739745,-80.2784095,13.25,53.11,Hospitals,LifeScience,14871539,200,Private,United States
277,Sunrise,Sunrise,33326-1937,26.1031615,-80.3573365,13.35,46.32,Data Processing,InfoTech,12690285,80,Private,United States
276,D V M,Weston,33331-3573,25.93568,-80.201431,13.4,54.68,Pharmaceutical Manufacturing,LifeScience,8027895.9,56,Private,Israel
275,Jpay LLC,Miramar,33025-1703,25.9784388,-80.2921193,13.57,53.05,Computer Programming,InfoTech,13969457,86,Private,United States
274,Data Scan Holdings LLC,Deerfield Beach,33442-1702,26.3187414,-80.1194349,13.66,27.72,Internet and Web Services,InfoTech,11126463,173,Private,United States
273,Parkcreek Surgery Center,Coconut Creek,33073-4304,26.3142258,-80.2011094,13.74,29.2,Physicians and Health Practitioners,LifeScience,11749788,75,Partnership,United States
272,Digestive Care,Coral Springs,33067-4639,26.2978765,-80.2475964,13.75,31.26,Physicians and Health Practitioners,LifeScience,19751501,280,Private,United States
271,Southeast Toyota Finance,Deerfield Beach,33442-1702,26.3202447,-80.1193913,13.76,27.62,Banking,Financial,95300896,174,Private,United States
270,"Ambient Healthcare of Central Florida, Inc.",Coral Springs,33065-2537,26.2765853,-80.2843092,13.79,33.53,Health and Personal Care Wholesale,LifeScience,26777996,5,Private,United States
268,"American Health Associates, Inc.",Davie,33331-1538,26.0672166,-80.3586439,13.9,48.63,Diagnostic Laboratories,LifeScience,82000000,302,Private,United States
269,Inceptra LLC,Weston,33326-3236,26.0938327,-80.3649515,13.9,47.1,Software,InfoTech,13795336,21,Private,United States
267,AMC,Coral Springs,33065-2511,26.279476,-80.284758,13.96,33.36,Medical Equipment and Supplies,LifeScience,5745170.1,30,Private,United States
266,"JM Solutions, JM Dealer Services",Deerfield Beach,33442-1723,26.3234466,-80.1181698,13.99,27.39,Computer Programming,InfoTech,8551041.6,142,Private,United States
265,Cleveland Clinic Florida Foundation,Weston,33331-3609,26.0817288,-80.3649907,14.04,47.87,Hospitals,LifeScience,141053050,450,Nonprofit,United States
264,Amsurg,Weston,33326-3283,26.0925779,-80.3687358,14.14,47.27,Physicians and Health Practitioners,LifeScience,7862433,50,Partnership,United States
263,Apotex Corp.,Weston,33326-3253,26.0887732,-80.3692578,14.21,47.53,Pharmaceutical Manufacturing,LifeScience,81165901,80,Private,Canada
262,ParagonMeds,Weston,33331-3504,26.0761995,-80.3671699,14.25,48.27,Health and Personal Care Wholesale,LifeScience,12404392,80,Private,United States
261,"Sentry Data Systems, Inc.",Deerfield Beach,33441-1830,26.3270399,-80.1148366,14.26,27.11,Computer Programming,InfoTech,47615501,180,Private,United States
260,"Florida Community Banks, Inc.",Fort Lauderdale,33331-3617,26.085871,-80.3696058,14.27,47.72,Banking,Financial,60777973,180,Private,United States
259,"Anda, Inc.",Weston,33331-3627,26.0819572,-80.3698667,14.33,47.97,Health and Personal Care Wholesale,LifeScience,366895080,302,Private,Israel
258,Power Financial Credit Union,Pembroke Pines,33028-2890,26.0274174,-80.3487248,14.34,50.95,Banking,Financial,23432028,45,Private,United States
257,"Da Vinci Systems, Inc.",Coral Springs,33065,26.285105,-80.291168,14.52,33.18,Communications Equipment Manufacturing,InfoTech,11885407,95,Private,United States
255,Amplexus International of Odeveloper,Weston,33331-3624,26.0859542,-80.3742598,14.55,47.83,Computer System Design Services,InfoTech,9713578.2,7,Private,United States
256,"Women's Healthcare Associates, P.A.",Boca Raton,33433-7056,26.3326426,-80.1507839,14.55,27.13,Physicians and Health Practitioners,LifeScience,5727384.1,42,Private,United States
253,Unite Parent Corp.,Fort Lauderdale,33326-3643,26.0969179,-80.3843933,15.06,47.41,Software,InfoTech,1140543900,5113,Private,United States
254,Ultimate Software,Weston,33326-3643,26.0969179,-80.3843933,15.06,47.41,Software,InfoTech,1140543900,5113,Private,United States
252,"Nighthawk Radiology Holdings, Inc.",Coral Springs,33076-3300,26.3047669,-80.2804669,15.21,31.67,Physicians and Health Practitioners,LifeScience,7625701.9,240,Private,United States
251,U D T,Miramar,33027-3987,25.9818652,-80.3364049,15.43,53.65,Computer System Design Services,InfoTech,83705948,80,Private,United States
250,"Elizabeth Arden International Holding, Inc.",Miramar,33027-4230,25.9869202,-80.3421114,15.49,53.44,Health and Personal Care Wholesale,LifeScience,74909393,272,Private,United States
249,AOD Software,Coral Springs,33076-3304,26.3091166,-80.2818708,15.51,31.44,Computer Programming,InfoTech,18391476,110,Private,United States
248,Clearly Derm LLC,Boca Raton,33433-3463,26.348426,-80.1577599,15.66,26.17,Pharmaceutical Manufacturing,LifeScience,5595876.2,55,Private,United States
247,Summit Brokerage Services Inc,Boca Raton,33432-5542,26.344723,-80.0871297,15.77,25.71,Investment Services,Financial,16577879,79,Private,United States
246,"Mdlive, Inc.",Miramar,33027-3259,25.9768854,-80.3450938,16.06,54.16,Ambulatory Services,LifeScience,46000000,220,Private,United States
245,United Wireless Technologies Inc.,Boca Raton,33432-5503,26.3494131,-80.0778068,16.22,25.34,Computer and Peripheral Equipment Manufacturing,InfoTech,182000000,26,Private,United States
244,Accurate Software Solutions LLC,Hollywood,33027-1075,25.9999246,-80.3666262,16.24,53.13,Computer Programming,InfoTech,6454685.2,1025,Private,United States
243,Pharmalogic Holdings Corp.,Boca Raton,33432-5143,26.3511166,-80.0710239,16.44,25.2,Health and Personal Care Wholesale,LifeScience,17650343,44,Private,United States
241,"Tenet Florida Physician Services, L.L.C.",Boca Raton,33428-1705,26.3552215,-80.2009749,16.49,26.52,Physicians and Health Practitioners,LifeScience,18633345,104,Private,United States
242,Ithink Financial Credit Union,Delray Beach,33445-2555,26.3598072,-80.1189332,16.49,24.91,Banking,Financial,61038528,160,Private,United States
240,"John W. Henry & Company, Inc.",Boca Raton,33432-3945,26.3554909,-80.0855466,16.51,24.96,Investment Services,Financial,12645053,60,Private,United States
238,Lynn Regional Cancer Center Of Boca Raton,Boca Raton,33486-2368,26.3585783,-80.1022013,16.53,24.85,Hospitals,LifeScience,424642300,1800,Nonprofit,United States
239,THC,Boca Raton,33428-1899,26.3561486,-80.1991879,16.53,26.42,Hospitals,LifeScience,143014420,835,Private,United States
236,"Sun Capital Partners, Inc.",Boca Raton,33486-1045,26.3615634,-80.1241899,16.58,24.85,Investment Services,Financial,7373704100,100,Private,United States
237,"Sun Capital Advisors, Inc.",Boca Raton,33486-1045,26.3615634,-80.1241899,16.58,24.85,Investment Services,Financial,7728139.9,33,Private,United States
235,Boca Raton Community Hospital,Boca Raton,33486-2395,26.3606621,-80.1040965,16.66,24.72,Physicians and Health Practitioners,LifeScience,6862723.8,25,Private,United States
234,Jeffrey M Perelman Md Facs,Boca Raton,33486-2310,26.360908,-80.104863,16.67,24.71,Physicians and Health Practitioners,LifeScience,27764872,408,Private,United States
233,BOCA RATON REHABILITATION CENTER,Boca Raton,33486-2384,26.3607384,-80.1024195,16.68,24.7,Outpatient Care,LifeScience,11741157,99,Private,United States
232,"Boca Radiology Group, P.A.",Boca Raton,33486-2337,26.3619117,-80.1055174,16.73,24.65,Physicians and Health Practitioners,LifeScience,5804153,48,Private,United States
229,For Eyes Optical Co,Miramar,33027-6312,25.9757487,-80.3582959,16.76,54.51,Medical Equipment and Supplies,LifeScience,76848572,200,Private,Bermuda
230,Vohra Wound Physicians Mgnt LLC,Miramar,33027-6314,25.9757487,-80.3582959,16.76,54.51,Physicians and Health Practitioners,LifeScience,7884707.9,75,Partnership,United States
231,"Vohra Health Services, P.A.",Miramar,33027-6314,25.9757487,-80.3582959,16.76,54.51,Physicians and Health Practitioners,LifeScience,6923673.2,57,Private,United States
227,"Cendyn, Cendyn Spaces",Boca Raton,33432-2711,26.359532,-80.0830876,16.82,24.67,Computer System Design Services,InfoTech,66824860,350,Private,United States
228,"Amzak Capital Management, Llc.",Boca Raton,33432-2744,26.359532,-80.0830876,16.82,24.67,Investment Services,Financial,19216106,205,Private,United States
226,"Quinn, Wollowick, Purita, Schosheim, Kresbach & Stewart",Boca Raton,33486,26.363012,-80.100426,16.85,24.53,Physicians and Health Practitioners,LifeScience,6000000,30,Private,United States
225,Boca Raton Outpatient Surgery & Laser Center Ltd,Boca Raton,33432-1419,26.3627845,-80.0963979,16.88,24.52,Physicians and Health Practitioners,LifeScience,6328908,55,Partnership,United States
224,Legacy Bank of Florida,Boca Raton,33431-8516,26.3671112,-80.1278541,16.95,24.51,Banking,Financial,21698999,32,Private,United States
223,"Bendcare, LLC",Boca Raton,33431-7391,26.368734,-80.1263771,17.07,24.38,Ambulatory Services,LifeScience,240000000,75,Private,United States
222,Aml Diagnostics Inc.,Boca Raton,33432-1607,26.3643075,-80.0881065,17.08,24.36,Diagnostic Laboratories,LifeScience,16000000,35,Private,United States
221,Garda Cash Logistics,Boca Raton,33431-7304,26.37015,-80.124071,17.18,24.26,Mortgage and Credit,Financial,1149277600,100,Private,United Kingdom
220,Beachway Therapy Center Delray Beach,West Palm Beach,33407-6504,26.3654946,-80.0848334,17.2,24.26,Outpatient Care,LifeScience,5877377,44,Private,United States
219,ICC,Boca Raton,33431-8550,26.3711138,-80.1228039,17.25,24.18,Physicians and Health Practitioners,LifeScience,6480000,35,Private,United States
217,Sun American Bancorp,Boca Raton,33434-3905,26.3685709,-80.191257,17.28,25.44,Banking,Financial,38259293,117,Private,United States
218,"Jvb Financial Group., L.L.C.",Boca Raton,33431-8554,26.3715055,-80.1223403,17.28,24.15,Investment Services,Financial,6590357.8,40,Private,United States
216,Strategic Mapping Inc.,Boca Raton,33434-4231,26.3729179,-80.1553962,17.34,24.5,Computer Programming,InfoTech,5000000,6,Private,United States
215,"Global Jet Capital, Inc.",Boca Raton,33431-6324,26.3730657,-80.1202638,17.39,24.02,Banking,Financial,14514808,4,Private,United States
214,"Ebizsoft, Inc",Davie,33330-4308,26.010815,-80.396034,17.48,53.13,Computer System Design Services,InfoTech,6076149.9,75,Private,United States
212,Unify Enterprise Communications,Boca Raton,33431-6390,26.3753904,-80.1195658,17.56,23.86,Communications Equipment Manufacturing,InfoTech,62389999,250,Private,France
213,"Red Violet, Inc.",Boca Raton,33431-6345,26.3753904,-80.1195658,17.56,23.86,Data Processing,InfoTech,30285999,97,Public,United States
211,METCARE,Boca Raton,33431-6308,26.3762551,-80.1209258,17.61,23.81,Physicians and Health Practitioners,LifeScience,46043423,115,Private,United States
210,Skillsoft Inc,Boca Raton,33498-6903,26.3737431,-80.2048101,17.79,25.4,Computer System Design Services,InfoTech,6000000,41,Private,United States
209,"Coppercom, A Heico",Boca Raton,33431-6474,26.3827476,-80.0967033,18.24,23.15,Communications Equipment Manufacturing,InfoTech,18559322,120,Private,United States
208,Mri RadiUniversity Mri And Diagnostic Imaging Centers Of Boca Raton,Boca Raton,33431-6437,26.3838639,-80.0972467,18.31,23.08,Physicians and Health Practitioners,LifeScience,11818618,140,Private,United States
205,Data Base Technologies,Boca Raton,33431-4489,26.387889,-80.1088046,18.48,22.9,Computer Programming,InfoTech,12293366,260,Private,United Kingdom
206,"Tlfo, LLC",Boca Raton,33431-4489,26.387889,-80.1088046,18.48,22.9,Computer Programming,InfoTech,19025896,175,Private,United States
207,TLO,Boca Raton,33431-4489,26.387889,-80.1088046,18.48,22.9,Computer Programming,InfoTech,13772013,99,Private,United States
204,"Cloudoptix, LLC",Boca Raton,33431-8429,26.3919286,-80.132347,18.65,22.89,Computer Programming,InfoTech,5000000,100,Private,United States
202,"Modernizing Medicine, Inc.",Boca Raton,33431,26.3909506,-80.1062235,18.71,22.66,Software,InfoTech,107696600,500,Private,United States
203,GMED,Boca Raton,33431,26.3909506,-80.1062235,18.71,22.66,Software,InfoTech,12872588,125,Private,United States
201,"Independent Portfolio Consultants, Inc",Boca Raton,33431-4433,26.3916659,-80.1062905,18.76,22.61,Investment Services,Financial,7653569.2,31,Private,United States
199,"IdeaSphere, Rebus Publishing",Boca Raton,33431-4479,26.3922784,-80.1096063,18.78,22.6,Pharmaceutical Manufacturing,LifeScience,99474419,23,Private,United States
200,TCH,Boca Raton,33431-4479,26.3922784,-80.1096063,18.78,22.6,Pharmaceutical Manufacturing,LifeScience,73459999,87,Private,United States
198,Secon,Boca Raton,33431-3367,26.3917788,-80.1031818,18.8,22.58,Ambulatory Services,LifeScience,6000000,30,Private,United States
196,"Mdvip, LLC",Boca Raton,33431-3308,26.3929373,-80.110687,18.82,22.57,Hospitals,LifeScience,30586580,54,Private,United States
197,Mobile,Boca Raton,33431-4462,26.3928052,-80.109732,18.82,22.57,Medical Equipment and Supplies,LifeScience,20914375,70,Private,United States
193,Telit IOT Platforms,Boca Raton,33487-3535,26.3950578,-80.1123238,18.95,22.44,Magnetic and Optical Media Manufacturing,InfoTech,337500000,142,Private,United Kingdom
194,Promise Hospital of San Diego,Boca Raton,33431-4476,26.3946203,-80.1087579,18.95,22.44,Ambulatory Services,LifeScience,22875284,300,Private,United States
195,"Sun Capital, Inc.",Boca Raton,33431-4476,26.3946203,-80.1087579,18.95,22.44,Banking,Financial,14507765,80,Private,United States
192,"National Pain Research Institute, LLC",Boca Raton,33487-3521,26.3949125,-80.1102296,18.96,22.43,Physicians and Health Practitioners,LifeScience,8178455.4,13,Private,United States
190,IntelliSpace Event Management,Boca Raton,33431-4444,26.3952694,-80.1073346,19,22.38,Computer Programming,InfoTech,66819778,900,Private,Netherlands
191,TherapeuticsMD,Boca Raton,33431-4440,26.3952694,-80.1073346,19,22.38,Pharmaceutical Manufacturing,LifeScience,49646938,173,Public,United States
187,Biotest Plasma Center,Boca Raton,33431-4409,26.3953274,-80.105692,19.02,22.36,Pharmaceutical Manufacturing,LifeScience,157336960,50,Private,Spain
188,"Cortera, Inc.",Boca Raton,33431-4497,26.3953274,-80.105692,19.02,22.36,Business Support Services,InfoTech,35478401,280,Private,United States
189,FlexShopper,Boca Raton,33431-4415,26.3953274,-80.105692,19.02,22.36,Banking,Financial,88789886,180,Public,United States
186,Airspan,Boca Raton,33431-4406,26.3949117,-80.1004768,19.03,22.34,Communications Equipment Manufacturing,InfoTech,51224327,30,Public,United States
185,"Williams Babbit & Weisman, Inc.",Boca Raton,33431-4403,26.396008,-80.1089207,19.04,22.34,Business Support Services,InfoTech,5354010.1,27,Private,United States
184,Talisma,Boca Raton,33487-3600,26.3970556,-80.1042957,19.15,22.23,Computer System Design Services,InfoTech,106591800,180,Private,United States
182,3 C i,Boca Raton,33487-3612,26.3973,-80.0999323,19.2,22.17,Computer Programming,InfoTech,18309717,85,Private,United Kingdom
183,"Mix Telematics North America, Inc.",Boca Raton,33487-3611,26.3973,-80.0999323,19.2,22.17,Data Processing,InfoTech,5422860.1,25,Private,South Africa
181,Csl Plasma Inc.,Boca Raton,33487-3513,26.3987365,-80.1062767,19.25,22.13,Ambulatory Services,LifeScience,90189110,3,Private,Australia
178,Message Ops,Boca Raton,33487-3634,26.398979,-80.100456,19.31,22.06,Computer System Design Services,InfoTech,107000000,100,Private,United States
179,KRS Global Biotechnology Manufacturing,Boca Raton,33487-3633,26.398979,-80.100456,19.31,22.06,Pharmaceutical Manufacturing,LifeScience,13058841,40,Private,United States
180,Client First Settlement Funding LLC,Boca Raton,33431-4934,26.3956965,-80.0795088,19.31,22.16,Banking,Financial,39669830,120,Private,United States
177,"Sensus Healthcare, Inc.",Boca Raton,33487-3635,26.3998848,-80.1036412,19.35,22.03,Medical Equipment and Supplies,LifeScience,27263248,45,Public,United States
176,Virtualworks Group Inc.,Boca Raton,33487-4910,26.3960008,-80.0773265,19.36,22.13,Computer Programming,InfoTech,6171264.2,28,Private,United States
174,CTCA,Boca Raton,33487-2797,26.4015062,-80.1145052,19.38,22.02,Hospitals,LifeScience,105553440,153,Private,United States
175,"Cancer Treatment Centers of America Global, Inc.",Boca Raton,33487-2797,26.4015062,-80.1145052,19.38,22.02,Physicians and Health Practitioners,LifeScience,166592990,110,Private,United States
173,Smartmatic Corporation,Boca Raton,33487-3532,26.4013129,-80.108952,19.41,21.98,Computer and Peripheral Equipment Manufacturing,InfoTech,13349375,10,Private,United Kingdom
171,"TBG Nms Holdings, Inc.",Boca Raton,33487-3507,26.4013745,-80.10735,19.42,21.96,Dentists,LifeScience,24717199,331,Private,United States
172,Sage Dental,Boca Raton,33487-3506,26.4013745,-80.10735,19.42,21.96,Dentists,LifeScience,24717199,328,Private,United States
170,BSN,Boca Raton,33487-2773,26.4024364,-80.1167301,19.44,21.98,Health and Personal Care Wholesale,LifeScience,48573486,130,Private,Ireland
169,Scriptlogic Corporation,Boca Raton,33487-2712,26.4030027,-80.1150287,19.48,21.93,Computer Programming,InfoTech,13224878,100,Private,United States
168,"Boca Systems, Inc.",Boca Raton,33487-2816,26.4034901,-80.1082099,19.56,21.82,Computer and Peripheral Equipment Manufacturing,InfoTech,27853359,135,Private,United States
167,"Keratin Complex, Smoothing Therapy by Coppola",Boca Raton,33487-2850,26.4034748,-80.1014596,19.61,21.76,Health and Personal Care Wholesale,LifeScience,9817490.6,25,Private,United States
166,"Datamax System Solutions, Inc.",Boca Raton,33487-8232,26.4041872,-80.0979251,19.69,21.69,Computer System Design Services,InfoTech,10000000,45,Private,United States
163,Revelex Corporation,Boca Raton,33487-2861,26.4058298,-80.1026195,19.76,21.61,Computer System Design Services,InfoTech,13223740,70,Private,United States
164,"Statetrust Capital, LLC",Boca Raton,33487-2707,26.4073025,-80.1186046,19.76,21.67,Investment Services,Financial,11109208,55,Private,United States
165,Hockeytech Inc.,Boca Raton,33496-4062,26.4078869,-80.1558977,19.76,22.18,Computer Programming,InfoTech,8000000,2,Private,United States
162,CSSI,Boca Raton,33487-8224,26.4074971,-80.095656,19.94,21.44,Computer Programming,InfoTech,34634365,275,Private,United States
160,"Dcr System House, Inc.",Boca Raton,33487-1394,26.4177838,-80.0985797,20.61,20.76,Computer System Design Services,InfoTech,484870570,85,Private,United States
161,"Dcr Workforce, Inc.",Boca Raton,33487-1394,26.4177838,-80.0985797,20.61,20.76,Computer System Design Services,InfoTech,702075070,82,Private,United States
159,Caron Renaissance and Caron Ocean Drive,Boca Raton,33487-1326,26.4177413,-80.0979688,20.62,20.76,Hospitals,LifeScience,20949202,700,Nonprofit,United States
158,sterling 5,Boca Raton,33487-1385,26.4209412,-80.0974015,20.84,20.53,Computer Programming,InfoTech,12500000,122,Private,United States
157,Peopleticker LLC,Delray Beach,33483-8032,26.4231074,-80.0722584,21.26,20.24,Computer System Design Services,InfoTech,21086000,516,Private,United States
155,"South County Mental Health Center, Inc.",Delray Beach,33484-6502,26.4368497,-80.1214853,21.79,19.71,Outpatient Care,LifeScience,14674666,75,Nonprofit,United States
156,Delray Eye Associates PA,Delray Beach,33484-6503,26.4368927,-80.1227515,21.79,19.72,Physicians and Health Practitioners,LifeScience,6471505.2,33,Private,United States
154,The Center For Hematology-Oncology P A,Delray Beach,33484-6416,26.4383463,-80.1430014,21.85,19.94,Physicians and Health Practitioners,LifeScience,5228025.9,26,Private,United States
153,PositiveID,Delray Beach,33445-6386,26.4353596,-80.0932273,21.86,19.51,Pharmaceutical Manufacturing,LifeScience,5359000.2,30,Private,United States
152,Delray Beach Surgical Center,Delray Beach,33445-6595,26.4380306,-80.1187806,21.88,19.59,Physicians and Health Practitioners,LifeScience,6737981.8,50,Partnership,United States
151,Arthritis Associates of South Florida,Delray Beach,33484-6597,26.4385664,-80.123815,21.9,19.62,Physicians and Health Practitioners,LifeScience,5180658.8,55,Partnership,United States
148,Escalate Retail,Delray Beach,33445-6326,26.4378874,-80.0914755,22.05,19.33,Computer Programming,InfoTech,22531948,180,Private,United States
149,"Blue Martini Software, Inc.",Delray Beach,33445-6326,26.4378874,-80.0914755,22.05,19.33,Computer Programming,InfoTech,12775448,210,Private,United States
150,Techsoft,Delray Beach,33445-6326,26.4378874,-80.0914755,22.05,19.33,Computer System Design Services,InfoTech,7415322.8,42,Private,United States
147,"R.M. Stark & Co., Inc.",Delray Beach,33483-5186,26.4505877,-80.0665452,23.19,18.32,Investment Services,Financial,8968772.9,8,Private,United States
146,The Watershed Treatment Programs Inc,Delray Beach,33445-4618,26.4562255,-80.0957891,23.27,18.1,Hospitals,LifeScience,19337547,250,Private,United States
145,"Lanlogics, LLC",Delray Beach,33484-2600,26.4691066,-80.1215289,24.01,17.54,Computer System Design Services,InfoTech,10619485,180,Private,United States
144,Summit Dental Systems,Pompano Beach,33069-4320,26.5012776,-80.0853789,26.44,14.93,Medical Equipment and Supplies,LifeScience,8000000,28,Private,United States
142,ORTHOPAEDIC SURGICAL ASSOCIATES,Boynton Beach,33435-7944,26.5027578,-80.0689117,26.7,14.73,Physicians and Health Practitioners,LifeScience,5070313.9,44,Private,United States
143,Orthopedic Surgery Associates,Boynton Beach,33435-7944,26.5027578,-80.0689117,26.7,14.73,Physicians and Health Practitioners,LifeScience,6455225.9,40,Private,United States
141,"Bethesda Hospital West, Bethesda Hospital East",Boynton Beach,33435-7995,26.5042025,-80.0702956,26.79,14.63,Hospitals,LifeScience,299867580,110,Nonprofit,United States
140,"Medical Specialists of The Palm Beaches, Inc.",Boynton Beach,33437-6155,26.5273055,-80.1688042,28.04,14.83,Physicians and Health Practitioners,LifeScience,37825924,31,Private,United States
139,MEDEXPRESS URGENT CARE,Boynton Beach,33437-6164,26.5291254,-80.165447,28.16,14.62,Physicians and Health Practitioners,LifeScience,12238361,50,Private,United States
138,"Mackinac Savings Bank, Fsb",Boynton Beach,33426-4212,26.5273159,-80.0891406,28.2,13.19,Banking,Financial,5823000,12,Private,United States
137,Caridad Center,Boynton Beach,33472-4415,26.5293976,-80.1824931,28.25,15.13,Physicians and Health Practitioners,LifeScience,8498928.1,56,Nonprofit,United States
136,"Treatment Center, The",Lake Worth,33463-6915,26.5899138,-80.1214853,32.36,9.64,Outpatient Care,LifeScience,33045818,300,Private,United States
135,Paramount Funding Group Inc,Lake Worth,33462-3207,26.584141,-80.050354,32.44,9.07,Mortgage and Credit,Financial,83000000,25,Private,United States
134,"Children's Diagnostic & Treatment Center, Inc.",Fort Lauderdale,33316-2619,26.5986455,-80.0527501,33.41,8.07,Ambulatory Services,LifeScience,17050549,175,Nonprofit,United States
133,Orthopedic Center,Lake Worth,33461-4746,26.60499,-80.0899394,33.53,7.96,Physicians and Health Practitioners,LifeScience,6672646,55,Private,United States
131,Cypress Financial Research LLC,Fort Lauderdale,33301-2669,26.61256,-80.0528722,34.35,7.11,Investment Services,Financial,7000000,34,Private,United States
132,"Webpower, Inc.",Lake Worth,33467-2536,26.6186129,-80.1693056,34.35,9.8,Computer Programming,InfoTech,8050854.7,100,Private,United States
130,SFGA,Greenacres,33463-3074,26.6208007,-80.1411605,34.46,8.49,Physicians and Health Practitioners,LifeScience,22000000,32,Private,United States
129,"Vision Precision Holdings, LLC",Palm Springs,33461-4140,26.619972,-80.089668,34.57,6.96,Physicians and Health Practitioners,LifeScience,7722031.1,1000,Private,United States
127,"Sunrise Detoxification Center, LLC",Lake Worth,33461-6606,26.6273768,-80.077632,35.15,6.26,Physicians and Health Practitioners,LifeScience,11135263,54,Private,United States
128,"Sunrise Detox III, LLC",Lake Worth,33461-6612,26.6273768,-80.077632,35.15,6.26,Outpatient Care,LifeScience,5566889.8,74,Private,United States
126,"Visual Health and Surgical Center, Inc.",Palm Springs,33461-3045,26.6283603,-80.0870692,35.16,6.36,Physicians and Health Practitioners,LifeScience,5558673.9,50,Private,United States
124,"Independent Imaging, LLC",Wellington,33449-8148,26.6286279,-80.2053465,35.21,11.14,Physicians and Health Practitioners,LifeScience,18115480,125,Private,United States
125,Cardiology Partners P.L.,Wellington,33449-8148,26.6286279,-80.2053465,35.21,11.14,Physicians and Health Practitioners,LifeScience,9940774,42,Private,United States
123,"Medical Center of Palm Beach, Inc.",West Palm Beach,33415-9120,26.6518315,-80.1145074,36.65,5.79,Physicians and Health Practitioners,LifeScience,5285121.9,55,Private,United States
122,"Wellington Regional Medical Center, LLC",West Palm Beach,33414-6199,26.6518008,-80.2051152,36.8,10.35,Hospitals,LifeScience,189683870,5,Private,United States
121,"Center For Bone & Joint Surgery of The Palm Beach, LLC",West Palm Beach,33414-6109,26.6537153,-80.2057689,36.94,10.33,Physicians and Health Practitioners,LifeScience,10879812,55,Partnership,United States
120,Guardians Credit Union,West Palm Beach,33406-4109,26.6653859,-80.0957869,37.66,4.33,Banking,Financial,8052816.4,65,Private,United States
119,"Southeast Highway Guardrail & Attenuators, LLC",West Palm Beach,33411-3831,26.6807734,-80.1705304,38.64,7.62,Semiconductor and Other Electronic Component Manufacturing,InfoTech,11989516,35,Private,United States
118,"Tj Acquisition, LLC",West Palm Beach,33405-2121,26.6786725,-80.0584692,38.82,2.55,Investment Services,Financial,227194430,1864,Partnership,United States
117,Palms West Hospital,Loxahatchee,33470-9203,26.6838236,-80.2525631,39.4,12.49,Hospitals,LifeScience,170852260,700,Partnership,United States
116,Palms West Surgicenter,Loxahatchee,33470-4989,26.6862552,-80.2502876,39.55,12.33,Physicians and Health Practitioners,LifeScience,6900589,65,Partnership,United States
115,"Sv Microwave, Inc.",West Palm Beach,33409-6469,26.6935111,-80.0757884,39.71,2.05,Semiconductor and Other Electronic Component Manufacturing,InfoTech,40232410,150,Private,United States
114,Planned Parenthood of The Palm Beach and Treasure Coast Areas Inc,West Palm Beach,33409-6416,26.694064,-80.0784177,39.73,2.13,Outpatient Care,LifeScience,11408062,18,Nonprofit,United States
113,"Hippocrates Health Institute, Inc.",West Palm Beach,33411-3388,26.6983941,-80.1592553,39.84,6.64,Ambulatory Services,LifeScience,17745911,50,Nonprofit,United States
111,Ocwen,West Palm Beach,33409-6493,26.6969507,-80.0761056,39.94,1.89,Banking,Financial,1123375000,7600,Public,United States
112,"Ocwen Loan Servicing, LLC",West Palm Beach,33409-6493,26.6969507,-80.0761056,39.94,1.89,Banking,Financial,315943270,300,Private,United States
110,"Watermark Medical Holdings, Inc.",West Palm Beach,33409-6707,26.6973491,-80.0752528,39.98,1.84,Ambulatory Services,LifeScience,106393640,6,Private,United States
109,LOGUS MICROWAVE,West Palm Beach,33409-6491,26.697824,-80.0768028,40,1.89,Semiconductor and Other Electronic Component Manufacturing,InfoTech,10736029,46,Private,United States
108,Qsgi Inc.,West Palm Beach,33409-5255,26.7020408,-80.0771519,40.29,1.73,Computer System Design Services,InfoTech,18974733,4,Private,United States
107,"Pharmasphere, Inc.",Palm Beach,33480-4635,26.7019271,-80.0374337,40.6,1.35,Health and Personal Care Wholesale,LifeScience,46535793,80,Private,United States
106,"Windgen Power Usa, Inc.",Delray Beach,33483-6661,26.7018966,-80.0336692,40.64,1.53,Electricity Generation and Distribution,Clean Tech,8204465.9,60,Private,United States
102,ComVest Group,West Palm Beach,33401-6351,26.7066126,-80.0559808,40.76,0.62,Investment Services,Financial,448910740,3100,Partnership,United States
103,"Comvest Capital, LLC",West Palm Beach,33401-6351,26.7066126,-80.0559808,40.76,0.62,Investment Services,Financial,17880760,5,Private,United States
104,Intech,West Palm Beach,33401-6355,26.7066126,-80.0559808,40.76,0.62,Investment Services,Financial,10368351,62,Private,United Kingdom
105,Comvest Partners,West Palm Beach,33401-6351,26.7066126,-80.0559808,40.76,0.62,Investment Services,Financial,88692665,67,Partnership,United States
101,"Chilton Trust Company, Llc.",Palm Beach,33480-4305,26.705515,-80.0407213,40.82,1.04,Investment Services,Financial,6919995.8,25,Private,United States
100,The Society of The Four Arts Inc,Palm Beach,33480-4141,26.7060012,-80.0422877,40.83,0.94,Miscellaneous Information Services,InfoTech,10853243,55,Nonprofit,United States
99,"ION Television, ION Media Networks",West Palm Beach,33401-6233,26.7088059,-80.0638387,40.84,0.79,Broadcasting and Media,InfoTech,255613480,66,Private,United States
98,"Cypress Capital Group, Inc.",Palm Beach,33480-4337,26.7060079,-80.0383415,40.87,1.13,Investment Services,Financial,9465496.1,62,Private,United States
97,Palm Beach Capital,West Palm Beach,33401-5932,26.708264,-80.051289,40.91,0.51,Investment Services,Financial,255790100,2303,Partnership,United States
96,AMC Holdings Services Incorporated,Boca Raton,33487-3107,26.70927,-80.056221,40.94,0.46,Health and Personal Care Wholesale,LifeScience,6615375,33,Private,United States
95,Buccaneer Mortgage Company,West Palm Beach,33411-2706,26.7147449,-80.1511168,40.96,6.04,Mortgage and Credit,Financial,5111393.9,50,Private,United States
94,"Medytox Solutions, Inc.",West Palm Beach,33401-5004,26.7107196,-80.0638387,40.98,0.72,Diagnostic Laboratories,LifeScience,11036135,107,Private,United States
93,"Integra Connect, LLC",West Palm Beach,33401-5914,26.7094579,-80.0510911,40.99,0.43,Software,InfoTech,45719944,12,Private,United States
92,"Vision Care Holdings, LLC",West Palm Beach,33409-6503,26.7152211,-80.0915977,41.11,2.36,Physicians and Health Practitioners,LifeScience,40670605,700,Private,United States
91,"MD Now, MD Now Urgent Care",West Palm Beach,33409-6501,26.7160542,-80.0930814,41.17,2.45,Physicians and Health Practitioners,LifeScience,15000000,12,Private,United States
89,"SEO Trio, SEO Partner",West Palm Beach,33401-4616,26.7136754,-80.0527501,41.27,0.12,Internet and Web Services,InfoTech,5500000,75,Partnership,United States
90,Cognizant Softvision,West Palm Beach,33401-4618,26.7136754,-80.0527501,41.27,0.12,Computer System Design Services,InfoTech,5412581.9,39,Private,United States
88,Flagler Medical Assoc,West Palm Beach,33401-2302,26.7237795,-80.078505,41.77,1.66,Physicians and Health Practitioners,LifeScience,5551508.9,30,Private,United States
87,Amth LLC,West Palm Beach,33401-2108,26.7251768,-80.0828902,41.85,1.95,Outpatient Care,LifeScience,57000000,1800,Private,United States
85,Palm Beach Cancer Institute,West Palm Beach,33401-3406,26.7248892,-80.0521826,42.04,0.66,Physicians and Health Practitioners,LifeScience,13908212,125,Private,United States
86,Palm Beach Cancer Institute LLC,West Palm Beach,33401-3406,26.7248892,-80.0521826,42.04,0.66,Hospitals,LifeScience,53325836,125,Private,United States
84,Dermatology Associates P A of The Palm Beaches,West Palm Beach,33407-6107,26.7307376,-80.0504798,42.45,1.08,Physicians and Health Practitioners,LifeScience,10645472,17,Private,United States
83,"Palm Beach Pathology, P.A.",West Palm Beach,33407-6081,26.731778,-80.0523135,42.51,1.14,Physicians and Health Practitioners,LifeScience,12551198,40,Private,United States
82,"Solitron Devices, Inc.",West Palm Beach,33407-4697,26.7413273,-80.0669381,43.06,1.98,Semiconductor and Other Electronic Component Manufacturing,InfoTech,8395000.5,75,Public,United States
81,BelHealth,Loxahatchee,33470-3689,26.7278449,-80.3250099,43.35,16.8,Investment Services,Financial,79562332,60,Partnership,United States
80,The Jerome Golden Center For Behavioral Health Inc,West Palm Beach,33407-2402,26.7539135,-80.0671127,43.92,2.8,Outpatient Care,LifeScience,24218632,10,Nonprofit,United States
79,Outpatient Program,West Palm Beach,33407-2495,26.7566512,-80.0629072,44.14,2.92,Hospitals,LifeScience,319615720,1500,Nonprofit,United States
78,Palm Beach Medical Group,West Palm Beach,33407-3381,26.7594038,-80.087447,44.18,3.7,Physicians and Health Practitioners,LifeScience,5921712.9,65,Private,United States
76,Amsurg,West Palm Beach,33407-1967,26.7602161,-80.0984488,44.19,4.17,Physicians and Health Practitioners,LifeScience,10859805,80,Partnership,United States
77,Northpoint Surgery Center,West Palm Beach,33407-1967,26.7602161,-80.0984488,44.19,4.17,Hospitals,LifeScience,5478620.1,51,Private,United States
74,"Kfor Radio, Kfrx Radio",West Palm Beach,33407-1960,26.7616479,-80.0954815,44.3,4.12,Broadcasting and Media,InfoTech,22698416,24,Private,United States
75,Wrmf Fm Palm Beach Brdcstg,West Palm Beach,33407-1960,26.7616479,-80.0954815,44.3,4.12,Broadcasting and Media,InfoTech,5726333.1,42,Private,United States
73,"Jsr Wellness, Inc.",West Palm Beach,33407-1961,26.7622013,-80.098851,44.32,4.29,Pharmaceutical Manufacturing,LifeScience,17628265,79,Private,United States
72,Mandala Healing Center,West Palm Beach,33407-2344,26.759939,-80.067299,44.33,3.2,Outpatient Care,LifeScience,5938327.8,45,Private,United States
71,West Palm Hospital,West Palm Beach,33407-2047,26.7618978,-80.0873646,44.35,3.84,Hospitals,LifeScience,78968857,625,Partnership,United States
70,"Ob/Gyn Specialists of The Palm Beaches, P.A.",West Palm Beach,33407-1901,26.7624606,-80.0934305,44.36,4.09,Physicians and Health Practitioners,LifeScience,20549501,60,Private,United States
69,"Clewiston Community Health Center, Indiantown Community Health Center",West Palm Beach,33407-2000,26.7630792,-80.0918595,44.41,4.07,Physicians and Health Practitioners,LifeScience,34033115,40,Nonprofit,United States
67,"FPL, FPLES",West Palm Beach,33407-1944,26.7641171,-80.100805,44.45,4.47,Electricity Generation and Distribution,Clean Tech,35210361,6,Private,United States
68,Atlantic Kidney Centers LLC,West Palm Beach,33407-3284,26.7630866,-80.0848334,44.45,3.83,Outpatient Care,LifeScience,7965808.9,25,Private,United States
66,Jewish Family Services,West Palm Beach,33407-2039,26.7641484,-80.092165,44.49,4.14,Outpatient Care,LifeScience,7830773.8,80,Private,United States
65,Adatif Medical Incorporated,West Palm Beach,33404-5911,26.7759937,-80.0934741,45.3,4.87,Medical Equipment and Supplies,LifeScience,5500000,1,Private,Canada
64,Covanta Palm Beach Resource Recovery LLC,West Palm Beach,33412-2413,26.778082,-80.135284,45.34,6.66,Electricity Generation and Distribution,Clean Tech,74762001,160,Private,United States
63,"3d Machining, Tecomet",Riviera Beach,33404-5101,26.7800479,-80.0889357,45.6,4.98,Medical Equipment and Supplies,LifeScience,48388134,203,Private,United States
62,Kindred Hospital The Palm Beaches,Riviera Beach,33418-7815,26.782945,-80.1104015,45.72,5.85,Hospitals,LifeScience,7590948.1,1203,Private,United States
61,"Horizon Pharmaceuticals, Inc.",Riviera Beach,33404-3450,26.7910927,-80.0942477,46.33,5.81,Pharmaceutical Manufacturing,LifeScience,10440013,55,Private,United States
60,Palm Beach Rejuvenation Center,West Palm Beach,33410-6324,26.800798,-80.1067525,46.96,6.76,Physicians and Health Practitioners,LifeScience,12000000,25,Private,United States
59,ProTech Medical,West Palm Beach,33403-1974,26.8051998,-80.0782172,47.38,6.4,Medical Equipment and Supplies,LifeScience,5224237,30,Private,United States
58,Creative Infocity Ltd,Palm Beach Gardens,33410-6276,26.8093006,-80.1022909,47.56,7.16,Computer Programming,InfoTech,7499009.1,220,Private,United States
57,Mortgage Works,Palm Beach Gardens,33403-1451,26.8097217,-80.0762184,47.7,6.68,Mortgage and Credit,Financial,5043227.2,40,Private,United States
56,Palm Beach Gardens Medical Center,Palm Beach Gardens,33410-4323,26.8294567,-80.0868409,49.01,8.15,Hospitals,LifeScience,215657550,900,Nonprofit,United States
55,"Palm Beach Orthopaedic Institute, P.A.",Palm Beach Gardens,33410-2895,26.8313922,-80.1007614,49.09,8.54,Physicians and Health Practitioners,LifeScience,30000000,111,Private,United States
54,North Palm Children's Physicians,Palm Beach Gardens,33410-4302,26.8313941,-80.0852323,49.15,8.26,Physicians and Health Practitioners,LifeScience,6472860.8,56,Private,United States
53,3i Implant Innovations,Palm Beach Gardens,33410-4200,26.8330459,-80.0951324,49.23,8.54,Medical Equipment and Supplies,LifeScience,138663120,250,Private,United States
52,"Legend Group, The",West Palm Beach,33410-4296,26.833169,-80.094137,49.24,8.53,Investment Services,Financial,12145159,80,Private,United States
50,AmeriPath,Palm Beach Gardens,33418-3799,26.8360267,-80.1343534,49.34,9.73,Diagnostic Laboratories,LifeScience,109755830,11,Private,United States
51,"Ameripath, Inc.",Palm Beach Gardens,33418-3799,26.8360267,-80.1343534,49.34,9.73,Diagnostic Laboratories,LifeScience,109755830,100,Private,United States
48,"Veriato, Inc.",Palm Beach Gardens,33410-6543,26.8375464,-80.1047321,49.5,9.02,Computer Programming,InfoTech,17211214,92,Private,United States
49,"Water's Edge Dermatology, LLC",Palm Beach Gardens,33410-4543,26.8355533,-80.07318,49.5,8.4,Physicians and Health Practitioners,LifeScience,38584560,65,Private,United States
47,Locus Traxx Worlwide,Palm Beach Gardens,33418-3776,26.8383892,-80.1349204,49.51,9.88,Communications Equipment Manufacturing,InfoTech,15082762,65,Private,United States
46,Professional Anesthesia Service Inc,Palm Beach Gardens,33418-4200,26.8385348,-80.134397,49.52,9.88,Hospitals,LifeScience,6275056.8,70,Private,United States
44,"Aurora Diagnostics Holdings, LLC",Palm Beach Gardens,33410-4269,26.839277,-80.0963106,49.65,8.97,Diagnostic Laboratories,LifeScience,284039000,935,Private,United States
45,"Aurora Diagnostics, LLC",Palm Beach Gardens,33410-4269,26.839277,-80.0963106,49.65,8.97,Diagnostic Laboratories,LifeScience,73591400,30,Private,Australia
43,"Apollo Funding, LLC",Palm Beach Gardens,33418-4033,26.8415916,-80.1328766,49.73,10.01,Mortgage and Credit,Financial,249000000,38,Private,United States
42,Evershore Financial Group Inc.,Palm Beach Gardens,33410-2810,26.8445184,-80.0878513,50.05,9.18,Investment Services,Financial,6721578.1,55,Private,United States
40,"Bankrate, LLC",Palm Beach Gardens,33410-2760,26.8452981,-80.0932123,50.08,9.31,Data Processing,InfoTech,434387390,155,Private,United States
41,"Third Planet Windpower, LLC",Palm Beach Gardens,33410-2757,26.8452981,-80.0932123,50.08,9.31,Electricity Generation and Distribution,Clean Tech,7802408.2,8,Private,United States
38,"Cason Home Loans, Mortgage300",North Palm Beach,33408-2718,26.8432051,-80.0622236,50.09,8.86,Banking,Financial,10000000,50,Private,United States
39,"Patient Portal Technologies, Inc.",North Palm Beach,33408-2738,26.8432051,-80.0622236,50.09,8.86,Software,InfoTech,5518188,40,Public,United States
37,Laser & Surgery Center Of Palm Beach,Palm Beach Gardens,33410-2713,26.8464381,-80.0912922,50.16,9.36,Physicians and Health Practitioners,LifeScience,9024834.6,50,Private,United States
36,Velocity Community Federal Credit Union,Palm Beach Gardens,33410-2929,26.8459628,-80.0769086,50.2,9.15,Banking,Financial,12406395,4,Private,United States
35,"National Dentex, LLC",Palm Beach Gardens,33410-2852,26.8474494,-80.08108,50.28,9.29,Medical Equipment and Supplies,LifeScience,141449920,50,Private,United States
33,"Hyper Network Solutions, Healthy Natural Systems",Palm Beach Gardens,33408-3042,26.849621,-80.05835,50.56,9.29,Health and Personal Care Wholesale,LifeScience,25764891,37,Private,United States
34,Slimfast,Palm Beach Gardens,33408-3042,26.849621,-80.05835,50.56,9.29,Health and Personal Care Wholesale,LifeScience,143092390,34,Private,Ireland
32,DSS,Juno Beach,33408-2478,26.85747,-80.057288,51.1,9.83,Computer Programming,InfoTech,59000000,250,Private,United States
16,"Nextera Energy, Inc.",Juno Beach,33408-2657,26.8595013,-80.0581897,51.24,9.97,Electricity Generation and Distribution,Clean Tech,19204000000,15,Public,United States
17,FPL,Juno Beach,33408-2683,26.8595013,-80.0581897,51.24,9.97,Electricity Generation and Distribution,Clean Tech,12192000000,15,Private,United States
18,"Nextera Energy Resources, Nextera Energy Seabrook",Juno Beach,33408-2657,26.8595013,-80.0581897,51.24,9.97,Electricity Generation and Distribution,Clean Tech,3677526600,100,Private,United States
19,"Nextera Energy Capital Holdings, Inc.",Juno Beach,33408-2657,26.8595013,-80.0581897,51.24,9.97,Electricity Generation and Distribution,Clean Tech,1488569300,1288,Private,United States
20,"Nextera Energy Duane Arnold, LLC",Juno Beach,33408-2657,26.8595013,-80.0581897,51.24,9.97,Electricity Generation and Distribution,Clean Tech,430348850,550,Private,United States
21,"Nextera Energy Operating Services, LLC",West Palm Beach,33408-2657,26.8595013,-80.0581897,51.24,9.97,Electricity Generation and Distribution,Clean Tech,262121580,300,Private,United States
22,"Esi California Holdings, Inc.",North Palm Beach,33408-2657,26.8595013,-80.0581897,51.24,9.97,Investment Services,Financial,27044243,3,Private,United States
23,"Nextera Energy Services Holdings, LLC",North Palm Beach,33408-2657,26.8595013,-80.0581897,51.24,9.97,Electricity Generation and Distribution,Clean Tech,57400330,152,Private,United States
24,"Nextera Energy Services, LLC",North Palm Beach,33408-2657,26.8595013,-80.0581897,51.24,9.97,Electricity Generation and Distribution,Clean Tech,57400330,140,Private,United States
25,FPL Energy,North Palm Beach,33408-2657,26.8595013,-80.0581897,51.24,9.97,Electricity Generation and Distribution,Clean Tech,15656827,100,Private,United States
26,"White Pine Hydro, LLC",North Palm Beach,33408-2657,26.8595013,-80.0581897,51.24,9.97,Electricity Generation and Distribution,Clean Tech,43139656,2,Private,United States
27,"Esi Energy, LLC",Juno Beach,33408-2657,26.8595013,-80.0581897,51.24,9.97,Electricity Generation and Distribution,Clean Tech,110076930,9,Private,United States
28,FPL Energy Wyman IV LLC,West Palm Beach,33408-2657,26.8595013,-80.0581897,51.24,9.97,Electricity Generation and Distribution,Clean Tech,54771671,70,Private,United States
29,"Wind Holdings, Inc",Juno Beach,33408-2657,26.8595013,-80.0581897,51.24,9.97,Computer Programming,InfoTech,6718173,1,Private,United States
30,Windlogics Inc.,Juno Beach,33408-2657,26.8595013,-80.0581897,51.24,9.97,Computer System Design Services,InfoTech,6166442.9,21,Private,United States
31,"Nextera Energy Marketing, LLC",North Palm Beach,33408-2657,26.8595013,-80.0581897,51.24,9.97,Electricity Generation and Distribution,Clean Tech,406054930,39,Private,United States
15,"Harvard Financial Group, Inc.",Juno Beach,33408-2313,26.8698498,-80.0497595,52,10.68,Investment Services,Financial,8600000.4,25,Private,United States
14,Glades General Hospital,Belle Glade,33430-5368,26.7239624,-80.6708383,52.88,38.13,Hospitals,LifeScience,27254740,300,Nonprofit,United States
13,"Access Medical Laboratories, Inc.",Jupiter,33458-3101,26.8875472,-80.1053865,52.96,12.33,Diagnostic Laboratories,LifeScience,10559444,75,Private,United States
12,"Mission Capital Advisors, L.L.C.",Jupiter,33458-4842,26.8904469,-80.102594,53.16,12.48,Investment Services,Financial,22728842,26,Partnership,United States
11,"Jupiter Outpatient Surgery Center, LLC",Jupiter,33458-7830,26.9149595,-80.1015532,54.86,14.12,Physicians and Health Practitioners,LifeScience,9485045.4,50,Private,United States
10,Alloy Cladding,Jupiter,33478-6436,26.9109479,-80.276994,55.14,19.32,Medical Equipment and Supplies,LifeScience,5893024.9,29,Private,United States
9,Ob Gyn Specialist of The Palm Beaches,Jupiter,33458-7100,26.9216942,-80.0989287,55.33,14.54,Physicians and Health Practitioners,LifeScience,5662064.1,150,Private,United States
8,"Jupiter Medical Center, Inc.",Jupiter,33458-7205,26.9225867,-80.0964992,55.4,14.57,Hospitals,LifeScience,236907180,500,Nonprofit,United States
7,Jupiter Medical Group PA,Jupiter,33458-5700,26.9259186,-80.1012415,55.62,14.85,Physicians and Health Practitioners,LifeScience,5231174,30,Private,United States
6,HealthyPetNet,Jupiter,33458-6059,26.9279236,-80.14155,55.69,15.67,Health and Personal Care Wholesale,LifeScience,18513643,33,Private,United States
5,"Group One Mortgage, Inc.",Jupiter,33477-5142,26.9334766,-80.0762353,56.23,15.15,Banking,Financial,9104755.4,80,Private,United States
4,Harbourside Place LLC,Jupiter,33477,26.935707,-80.082405,56.36,15.34,Banking,Financial,5570269.1,34,Private,United States
3,Hearx West LLC,Palm Beach Gardens,33410-4237,26.936356,-80.080017,56.41,15.37,Physicians and Health Practitioners,LifeScience,136780000,200,Private,United States
1,"Gfo Advisory Services, LLC",Jupiter,33477-5116,26.961246,-80.085084,58.11,17.11,Investment Services,Financial,19376608,28,Private,United States
2,Gen Spring Family Offices,Jupiter,33477-5116,26.961246,-80.085084,58.11,17.11,Investment Services,Financial,8237818.7,4,Private,United States
0,"Simple Living Technology, Inc.",Jupiter,33469-2680,26.969722,-80.0944778,58.66,17.77,Computer System Design Services,InfoTech,30000000,200,Private,United States
